$GPRMC,235946.084,V,,,,,,,310109,,,N*44
$GPRMC,235947.081,V,,,,,,,310109,,,N*40
$GPRMC,235948.075,V,,,,,,,310109,,,N*44
$GPRMC,235949.075,V,,,,,,,310109,,,N*45
$GPRMC,235950.075,V,,,,,,,310109,,,N*4D
$GPRMC,235951.075,V,,,,,,,310109,,,N*4C
$GPRMC,235952.075,V,,,,,,,310109,,,N*4F
$GPRMC,235953.075,V,,,,,,,310109,,,N*4E
$GPRMC,235954.075,V,,,,,,,310109,,,N*49
$GPRMC,014204.771,V,,,,,,,040209,,,N*40
$GPRMC,014205.771,V,,,,,,,040209,,,N*41
$GPRMC,014206.771,V,,,,,,,040209,,,N*42
$GPRMC,014207.771,V,,,,,,,040209,,,N*43
$GPRMC,014208.771,V,,,,,,,040209,,,N*4C
$GPRMC,014209.771,V,,,,,,,040209,,,N*4D
$GPRMC,014210.771,V,,,,,,,040209,,,N*45
$GPRMC,014211.771,V,,,,,,,040209,,,N*44
$GPRMC,014212.771,V,,,,,,,040209,,,N*47
$GPRMC,014213.771,V,,,,,,,040209,,,N*46
$GPRMC,014214.771,V,,,,,,,040209,,,N*41
$GPRMC,014215.771,V,,,,,,,040209,,,N*40
$GPRMC,014216.771,V,,,,,,,040209,,,N*43
$GPRMC,014217.771,V,,,,,,,040209,,,N*42
$GPRMC,014218.771,V,,,,,,,040209,,,N*4D
$GPRMC,014219.771,V,,,,,,,040209,,,N*4C
$GPRMC,014220.771,V,,,,,,,040209,,,N*46
$GPRMC,014221.771,V,,,,,,,051016,,,N*4B
$GPRMC,014222.771,V,,,,,,,051016,,,N*48
$GPRMC,014223.771,V,,,,,,,051016,,,N*49
$GPRMC,014224.771,V,,,,,,,051016,,,N*4E
$GPRMC,014225.771,V,,,,,,,051016,,,N*4F
$GPRMC,014226.771,V,,,,,,,051016,,,N*4C
$GPRMC,014227.771,V,,,,,,,051016,,,N*4D
$GPRMC,014228.771,V,,,,,,,051016,,,N*42
$GPRMC,014229.771,V,,,,,,,051016,,,N*43
$GPRMC,014230.771,V,,,,,,,051016,,,N*4B
$GPRMC,014231.771,V,,,,,,,051016,,,N*4A
$GPRMC,014232.771,V,,,,,,,051016,,,N*49
$GPRMC,014233.771,V,,,,,,,051016,,,N*48
$GPRMC,014234.771,V,,,,,,,051016,,,N*4F
$GPRMC,014235.771,V,,,,,,,051016,,,N*4E
$GPRMC,014236.771,V,,,,,,,051016,,,N*4D
$GPRMC,014237.771,V,,,,,,,051016,,,N*4C
$GPRMC,014238.771,V,,,,,,,051016,,,N*43
$GPRMC,014239.771,V,,,,,,,051016,,,N*42
$GPRMC,014240.771,V,,,,,,,051016,,,N*4C
$GPRMC,014241.771,V,,,,,,,051016,,,N*4D
$GPRMC,014242.771,V,,,,,,,051016,,,N*4E
$GPRMC,014243.771,V,,,,,,,051016,,,N*4F
$GPRMC,014244.771,V,,,,,,,051016,,,N*48
$GPRMC,014245.771,V,,,,,,,051016,,,N*49
$GPRMC,014246.771,V,,,,,,,051016,,,N*4A
$GPRMC,014247.771,V,,,,,,,051016,,,N*4B
$GPRMC,014248.771,V,,,,,,,051016,,,N*44
$GPRMC,014249.771,V,,,,,,,051016,,,N*45
$GPRMC,014250.771,V,,,,,,,051016,,,N*4D
$GPRMC,014251.771,V,,,,,,,051016,,,N*4C
$GPRMC,014252.771,V,,,,,,,051016,,,N*4F
$GPRMC,014253.771,V,,,,,,,051016,,,N*4E
$GPRMC,014254.771,V,,,,,,,051016,,,N*49
$GPRMC,014255.771,V,,,,,,,051016,,,N*48
$GPRMC,014256.771,V,,,,,,,051016,,,N*4B
$GPRMC,014257.771,V,,,,,,,051016,,,N*4A
$GPRMC,014258.771,V,,,,,,,051016,,,N*45
$GPRMC,014259.771,V,,,,,,,051016,,,N*44
$GPRMC,014300.771,V,,,,,,,051016,,,N*49
$GPRMC,014301.771,V,,,,,,,051016,,,N*48
$GPRMC,014302.771,V,,,,,,,051016,,,N*4B
$GPRMC,014303.771,V,,,,,,,051016,,,N*4A
$GPRMC,014304.771,V,,,,,,,051016,,,N*4D
$GPRMC,014305.771,V,,,,,,,051016,,,N*4C
$GPRMC,014306.771,V,,,,,,,051016,,,N*4F
$GPRMC,014307.771,V,,,,,,,051016,,,N*4E
$GPRMC,014308.771,V,,,,,,,051016,,,N*41
$GPRMC,014309.771,V,,,,,,,051016,,,N*40
$GPRMC,014310.771,V,,,,,,,051016,,,N*48
$GPRMC,014311.771,V,,,,,,,051016,,,N*49
$GPRMC,014312.771,V,,,,,,,051016,,,N*4A
$GPRMC,014313.771,V,,,,,,,051016,,,N*4B
$GPRMC,014314.771,V,,,,,,,051016,,,N*4C
$GPRMC,014315.771,V,,,,,,,051016,,,N*4D
$GPRMC,014316.771,V,,,,,,,051016,,,N*4E
$GPRMC,014317.771,V,,,,,,,051016,,,N*4F
$GPRMC,014318.771,V,,,,,,,051016,,,N*40
$GPRMC,014319.771,V,,,,,,,051016,,,N*41
$GPRMC,014320.771,V,,,,,,,051016,,,N*4B
$GPRMC,014321.771,V,,,,,,,051016,,,N*4A
$GPRMC,014322.771,V,,,,,,,051016,,,N*49
$GPRMC,014323.771,V,,,,,,,051016,,,N*48
$GPRMC,014324.771,V,,,,,,,051016,,,N*4F
$GPRMC,014325.771,V,,,,,,,051016,,,N*4E
$GPRMC,014326.771,V,,,,,,,051016,,,N*4D
$GPRMC,014327.771,V,,,,,,,051016,,,N*4C
$GPRMC,014328.771,V,,,,,,,051016,,,N*43
$GPRMC,014329.771,V,,,,,,,051016,,,N*42
$GPRMC,014330.771,V,,,,,,,051016,,,N*4A
$GPRMC,014331.771,V,,,,,,,051016,,,N*4B
$GPRMC,014332.771,V,,,,,,,051016,,,N*48
$GPRMC,014333.771,V,,,,,,,051016,,,N*49
$GPRMC,014334.771,V,,,,,,,051016,,,N*4E
$GPRMC,014335.771,V,,,,,,,051016,,,N*4F
$GPRMC,014336.771,V,,,,,,,051016,,,N*4C
$GPRMC,014337.771,V,,,,,,,051016,,,N*4D
$GPRMC,014338.771,V,,,,,,,051016,,,N*42
$GPRMC,014339.771,V,,,,,,,051016,,,N*43
$GPRMC,014340.771,V,,,,,,,051016,,,N*4D
$GPRMC,014341.771,V,,,,,,,051016,,,N*4C
$GPRMC,014342.771,V,,,,,,,051016,,,N*4F
$GPRMC,014343.771,V,,,,,,,051016,,,N*4E
$GPRMC,014344.771,V,,,,,,,051016,,,N*49
$GPRMC,014345.771,V,,,,,,,051016,,,N*48
$GPRMC,014346.771,V,,,,,,,051016,,,N*4B
$GPRMC,014347.771,V,,,,,,,051016,,,N*4A
$GPRMC,014348.771,V,,,,,,,051016,,,N*45
$GPRMC,014349.771,V,,,,,,,051016,,,N*44
$GPRMC,014350.771,V,,,,,,,051016,,,N*4C
$GPRMC,014351.771,V,,,,,,,051016,,,N*4D
$GPRMC,014352.771,V,,,,,,,051016,,,N*4E
$GPRMC,014353.771,V,,,,,,,051016,,,N*4F
$GPRMC,014354.771,V,,,,,,,051016,,,N*48
$GPRMC,014355.771,V,,,,,,,051016,,,N*49
$GPRMC,014356.771,V,,,,,,,051016,,,N*4A
$GPRMC,014357.771,V,,,,,,,051016,,,N*4B
$GPRMC,014358.771,V,,,,,,,051016,,,N*44
$GPRMC,014359.771,V,,,,,,,051016,,,N*45
$GPRMC,014400.771,V,,,,,,,051016,,,N*4E
$GPRMC,014401.771,V,,,,,,,051016,,,N*4F
$GPRMC,014402.771,V,,,,,,,051016,,,N*4C
$GPRMC,014403.773,A,
$GPRMC,014404.775,A,
$GPRMC,014405.775,A,
$GPRMC,014406.775,A,
$GPRMC,014407.775,A,
$GPRMC,014408.775,A,
$GPRMC,014409.775,A,
$GPRMC,014410.775,A,
$GPRMC,014411.775,A,
$GPRMC,014412.775,A,
$GPRMC,014413.775,A,
$GPRMC,014414.775,A,
$GPRMC,014415.775,A,
$GPRMC,014416.775,A,
$GPRMC,014417.775,A,
$GPRMC,014418.775,A,
$GPRMC,014419.775,A,
$GPRMC,014420.775,A,
$GPRMC,014421.775,A,
$GPRMC,014422.775,A,
$GPRMC,014423.775,A,
$GPRMC,014424.775,A,
$GPRMC,014425.775,A,
$GPRMC,014426.775,A,
$GPRMC,014427.775,A,
$GPRMC,014428.775,A,
$GPRMC,014429.775,A,
$GPRMC,014430.775,A,
$GPRMC,014431.775,A,
$GPRMC,014432.775,A,
$GPRMC,014433.775,A,
$GPRMC,014434.775,A,
$GPRMC,014435.775,A,
$GPRMC,014436.775,A,
$GPRMC,014437.775,A,
$GPRMC,014438.775,A,
$GPRMC,014439.775,A,
$GPRMC,014440.775,A,
$GPRMC,014441.775,A,
$GPRMC,014442.775,A,
$GPRMC,014443.775,A,
$GPRMC,014444.775,A,
$GPRMC,014445.775,A,
$GPRMC,014446.775,A,
$GPRMC,014447.775,A,
$GPRMC,014448.775,A,
$GPRMC,014449.775,A,
$GPRMC,014450.775,A,
$GPRMC,014451.775,A,
$GPRMC,014452.775,A,
$GPRMC,014453.775,A,
$GPRMC,014454.775,A,
$GPRMC,014455.775,A,
$GPRMC,014456.775,A,
$GPRMC,014457.775,A,
$GPRMC,014458.775,A,
$GPRMC,014459.775,A,
$GPRMC,014500.775,A,
$GPRMC,014501.775,A,
$GPRMC,014502.775,A,
$GPRMC,014503.775,A,
$GPRMC,014504.775,A,
$GPRMC,014505.000,A,
$GPRMC,014506.000,A,
$GPRMC,014507.000,A,
$GPRMC,014508.000,A,
$GPRMC,014509.000,A,
$GPRMC,014510.000,A,
$GPRMC,014511.000,A,
$GPRMC,014512.000,A,
$GPRMC,014513.000,A,
$GPRMC,014514.000,A,
$GPRMC,014515.000,A,
$GPRMC,014516.000,A,
$GPRMC,014517.000,A,
$GPRMC,014518.000,A,
$GPRMC,014519.000,A,
$GPRMC,014520.000,A,
$GPRMC,014521.000,A,
$GPRMC,014522.000,A,
$GPRMC,014523.000,A,
$GPRMC,014524.000,A,
$GPRMC,014525.000,A,
$GPRMC,014526.000,A,
$GPRMC,014527.000,A,
$GPRMC,014528.000,A,
$GPRMC,014529.000,A,
$GPRMC,014530.000,A,
$GPRMC,014531.000,A,
$GPRMC,014532.000,A,
$GPRMC,014533.000,A,
$GPRMC,014534.000,A,
$GPRMC,014535.000,A,
$GPRMC,014536.000,A,
$GPRMC,014537.000,A,
$GPRMC,014538.000,A,
$GPRMC,014539.000,A,
$GPRMC,014540.000,A,
$GPRMC,014541.000,A,
$GPRMC,014542.000,A,
$GPRMC,014543.000,A,
$GPRMC,014544.000,A,
$GPRMC,014545.000,A,
$GPRMC,014546.000,A,
$GPRMC,014547.000,A,
$GPRMC,014548.000,A,
$GPRMC,014549.000,A,
$GPRMC,014550.000,A,
$GPRMC,014551.000,A,
$GPRMC,014552.000,A,
$GPRMC,014553.000,A,
$GPRMC,014554.000,A,
$GPRMC,014555.000,A,
$GPRMC,014556.000,A,
$GPRMC,014557.000,A,
$GPRMC,014558.000,A,
$GPRMC,014559.000,A,
$GPRMC,014600.000,A,
$GPRMC,014601.000,A,
$GPRMC,014602.000,A,
$GPRMC,014603.000,A,
$GPRMC,014604.000,A,
$GPRMC,014605.000,A,
$GPRMC,014606.000,A,
$GPRMC,014607.000,A,
$GPRMC,014608.000,A,
$GPRMC,014609.000,A,
$GPRMC,014610.000,A,
$GPRMC,014611.000,A,
$GPRMC,014612.000,A,
$GPRMC,014613.000,A,
$GPRMC,014614.000,A,
$GPRMC,014615.000,A,
$GPRMC,014616.000,A,
$GPRMC,014617.000,A,
$GPRMC,014618.000,A,
$GPRMC,014619.000,A,
$GPRMC,014620.000,A,
$GPRMC,014621.000,A,
$GPRMC,014622.000,A,
$GPRMC,014623.000,A,
$GPRMC,014624.000,A,
$GPRMC,014625.000,A,
$GPRMC,014626.000,A,
$GPRMC,014627.000,A,
$GPRMC,014628.000,A,
$GPRMC,014629.000,A,
$GPRMC,014630.000,A,
$GPRMC,014631.000,A,
$GPRMC,014632.000,A,
$GPRMC,014633.000,A,
$GPRMC,014634.000,A,
$GPRMC,014635.000,A,
$GPRMC,014636.000,A,
$GPRMC,014637.000,A,
$GPRMC,014638.000,A,
$GPRMC,014639.000,A,
$GPRMC,014640.000,A,
$GPRMC,014641.000,A,
$GPRMC,014642.000,A,
$GPRMC,014643.000,A,
$GPRMC,014644.000,A,
$GPRMC,014645.000,A,
$GPRMC,014646.000,A,
$GPRMC,014647.000,A,
$GPRMC,014648.000,A,
$GPRMC,014649.000,A,
$GPRMC,014650.000,A,
$GPRMC,014651.000,A,
$GPRMC,014652.000,A,
$GPRMC,014653.000,A,
$GPRMC,014654.000,A,
$GPRMC,014655.000,A,
$GPRMC,014656.000,A,
$GPRMC,014657.000,A,
$GPRMC,014658.000,A,
$GPRMC,014659.000,A,
$GPRMC,014700.000,A,
$GPRMC,014701.000,A,
$GPRMC,014702.000,A,
$GPRMC,014703.000,A,
$GPRMC,014704.000,A,
$GPRMC,014705.000,A,
$GPRMC,014706.000,A,
$GPRMC,014707.000,A,
$GPRMC,014708.000,A,
$GPRMC,014709.000,A,
$GPRMC,014710.000,A,
$GPRMC,014711.000,A,
$GPRMC,014712.000,A,
$GPRMC,014713.000,A,
$GPRMC,014714.000,A,
$GPRMC,014715.000,A,
$GPRMC,014716.000,A,
$GPRMC,014717.000,A,
$GPRMC,014718.000,A,
$GPRMC,014719.000,A,
$GPRMC,014720.000,A,
$GPRMC,014721.000,A,
$GPRMC,014722.000,A,
$GPRMC,014723.000,A,
$GPRMC,014724.000,A,
$GPRMC,014725.000,A,
$GPRMC,014726.000,A,
$GPRMC,014727.000,A,
$GPRMC,014728.000,A,
$GPRMC,014729.000,A,
$GPRMC,014730.000,A,
$GPRMC,014731.000,A,
$GPRMC,014732.000,A,
$GPRMC,014733.000,A,
$GPRMC,014734.000,A,
$GPRMC,014735.000,A,
$GPRMC,014736.000,A,
$GPRMC,014737.000,A,
$GPRMC,014738.000,A,
$GPRMC,014739.000,A,
$GPRMC,014740.000,A,
$GPRMC,014741.000,A,
$GPRMC,014742.000,A,
$GPRMC,014743.000,A,
$GPRMC,014744.000,A,
$GPRMC,014745.000,A,
$GPRMC,014746.000,A,
$GPRMC,014747.000,A,
$GPRMC,014748.000,A,
$GPRMC,014749.000,A,
$GPRMC,014750.000,A,
$GPRMC,014751.000,A,
$GPRMC,014752.000,A,
$GPRMC,014753.000,A,
$GPRMC,014754.000,A,
$GPRMC,014755.000,A,
$GPRMC,014756.000,A,
$GPRMC,014757.000,A,
$GPRMC,014758.000,A,
$GPRMC,014759.000,A,
$GPRMC,014800.000,A,
$GPRMC,014801.000,A,
$GPRMC,014802.000,A,
$GPRMC,014803.000,A,
$GPRMC,014804.000,A,
$GPRMC,014805.000,A,
$GPRMC,014806.000,A,
$GPRMC,014807.000,A,
$GPRMC,014808.000,A,
$GPRMC,014809.000,A,
$GPRMC,014810.000,A,
$GPRMC,014811.000,A,
$GPRMC,014812.000,A,
$GPRMC,014813.000,A,
$GPRMC,014814.000,A,
$GPRMC,014815.000,A,
$GPRMC,014816.000,A,
$GPRMC,014817.000,A,
$GPRMC,014818.000,A,
$GPRMC,014819.000,A,
$GPRMC,014820.000,A,
$GPRMC,014821.000,A,
$GPRMC,014822.000,A,
$GPRMC,014823.000,A,
$GPRMC,014824.000,A,
$GPRMC,014825.000,A,
$GPRMC,014826.000,A,
$GPRMC,014827.000,A,
$GPRMC,014828.000,A,
$GPRMC,014829.000,A,
$GPRMC,014830.000,A,
$GPRMC,014831.000,A,
$GPRMC,014832.000,A,
$GPRMC,014833.000,A,
$GPRMC,014834.000,A,
$GPRMC,014835.000,A,
$GPRMC,014836.000,A,
$GPRMC,014837.000,A,
$GPRMC,014838.000,A,
$GPRMC,014839.000,A,
$GPRMC,014840.000,A,
$GPRMC,014841.000,A,
$GPRMC,014842.000,A,
$GPRMC,014843.000,A,
$GPRMC,014844.000,A,
$GPRMC,014845.000,A,
$GPRMC,014846.000,A,
$GPRMC,014847.000,A,
$GPRMC,014848.000,A,
$GPRMC,014849.000,A,
$GPRMC,014850.000,A,
$GPRMC,014851.000,A,
$GPRMC,014852.000,A,
$GPRMC,014853.000,A,
$GPRMC,014854.000,A,
$GPRMC,014855.000,A,
$GPRMC,014856.000,A,
$GPRMC,014857.000,A,
$GPRMC,014858.000,A,
$GPRMC,014859.000,A,
$GPRMC,014900.000,A,
$GPRMC,014901.000,A,
$GPRMC,014902.000,A,
$GPRMC,014903.000,A,
$GPRMC,014904.000,A,
$GPRMC,014905.000,A,
$GPRMC,014906.000,A,
$GPRMC,014907.000,A,
$GPRMC,014908.000,A,
$GPRMC,014909.000,A,
$GPRMC,014910.000,A,
$GPRMC,014911.000,A,
$GPRMC,014912.000,A,
$GPRMC,014913.000,A,
$GPRMC,014914.000,A,
$GPRMC,014915.000,A,
$GPRMC,014916.000,A,
$GPRMC,014917.000,A,
$GPRMC,014918.000,A,
$GPRMC,014919.000,A,
$GPRMC,014920.000,A,
$GPRMC,014921.000,A,
$GPRMC,014922.000,A,
$GPRMC,014923.000,A,
$GPRMC,014924.000,A,
$GPRMC,014925.000,A,
$GPRMC,014926.000,A,
$GPRMC,014927.000,A,
$GPRMC,014928.000,A,
$GPRMC,014929.000,A,
$GPRMC,014930.000,A,
$GPRMC,014931.000,A,
$GPRMC,014932.000,A,
$GPRMC,014933.000,A,
$GPRMC,014934.000,A,
$GPRMC,014935.000,A,
$GPRMC,014936.000,A,
$GPRMC,014937.000,A,
$GPRMC,014938.000,A,
$GPRMC,014939.000,A,
$GPRMC,014940.000,A,
$GPRMC,014941.000,A,
$GPRMC,014942.000,A,
$GPRMC,014943.000,A,
$GPRMC,014944.000,A,
$GPRMC,014945.000,A,
$GPRMC,014946.000,A,
$GPRMC,014947.000,A,
$GPRMC,014948.000,A,
$GPRMC,014949.000,A,
$GPRMC,014950.000,A,
$GPRMC,014951.000,A,
$GPRMC,014952.000,A,
$GPRMC,014953.000,A,
$GPRMC,014954.000,A,
$GPRMC,014955.000,A,
$GPRMC,014956.000,A,
$GPRMC,014957.000,A,
$GPRMC,014958.000,A,
$GPRMC,014959.000,A,
$GPRMC,015000.000,A,
$GPRMC,015001.000,A,
$GPRMC,015002.000,A,
$GPRMC,015003.000,A,
$GPRMC,015004.000,A,
$GPRMC,015005.000,A,
$GPRMC,015006.000,A,
$GPRMC,015007.000,A,
$GPRMC,015008.000,A,
$GPRMC,015009.000,A,
$GPRMC,015010.000,A,
$GPRMC,015011.000,A,
$GPRMC,015012.000,A,
$GPRMC,015013.000,A,
$GPRMC,015014.000,A,
$GPRMC,015015.000,A,
$GPRMC,015016.000,A,
$GPRMC,015017.000,A,
$GPRMC,015018.000,A,
$GPRMC,015019.000,A,
$GPRMC,015020.000,A,
$GPRMC,015021.000,A,
$GPRMC,015022.000,A,
$GPRMC,015023.000,A,
$GPRMC,015024.000,A,
$GPRMC,015025.000,A,
$GPRMC,015026.000,A,
$GPRMC,015027.000,A,
$GPRMC,015028.000,A,
$GPRMC,015029.000,A,
$GPRMC,015030.000,A,
$GPRMC,015031.000,A,
$GPRMC,015032.000,A,
$GPRMC,015033.000,A,
$GPRMC,015034.000,A,
$GPRMC,015035.000,A,
$GPRMC,015036.000,A,
$GPRMC,015037.000,A,
$GPRMC,015038.000,A,
$GPRMC,015039.000,A,
$GPRMC,015040.000,A,
$GPRMC,015041.000,A,
$GPRMC,015042.000,A,
$GPRMC,015043.000,A,
$GPRMC,015044.000,A,
$GPRMC,015045.000,A,
$GPRMC,015046.000,A,
$GPRMC,015047.000,A,
$GPRMC,015048.000,A,
$GPRMC,015049.000,A,
$GPRMC,015050.000,A,
$GPRMC,015051.000,A,
$GPRMC,015052.000,A,
$GPRMC,015053.000,A,
$GPRMC,015054.000,A,
$GPRMC,015055.000,A,
$GPRMC,015056.000,A,
$GPRMC,015057.000,A,
$GPRMC,015058.000,A,
$GPRMC,015059.000,A,
$GPRMC,015100.000,A,
$GPRMC,015101.000,A,
$GPRMC,015102.000,A,
$GPRMC,015103.000,A,
$GPRMC,015104.000,A,
$GPRMC,015105.000,A,
$GPRMC,015106.000,A,
$GPRMC,015107.000,A,
$GPRMC,015108.000,A,
$GPRMC,015109.000,A,
$GPRMC,015110.000,A,
$GPRMC,015111.000,A,
$GPRMC,015112.000,A,
$GPRMC,015113.000,A,
$GPRMC,015114.000,A,
$GPRMC,015115.000,A,
$GPRMC,015116.000,A,
$GPRMC,015117.000,A,
$GPRMC,015118.000,A,
$GPRMC,015119.000,A,
$GPRMC,015120.000,A,
$GPRMC,015121.000,A,
$GPRMC,015122.000,A,
$GPRMC,015123.000,A,
$GPRMC,015124.000,A,
$GPRMC,015125.000,A,
$GPRMC,015126.000,A,
$GPRMC,015127.000,A,
$GPRMC,015128.000,A,
$GPRMC,015129.000,A,
$GPRMC,015130.000,A,
$GPRMC,015131.000,A,
$GPRMC,015132.000,A,
$GPRMC,015133.000,A,
$GPRMC,015134.000,A,
$GPRMC,015135.000,A,
$GPRMC,015136.000,A,
$GPRMC,015137.000,A,
$GPRMC,015138.000,A,
$GPRMC,015139.000,A,
$GPRMC,015140.000,A,
$GPRMC,015141.000,A,
$GPRMC,015142.000,A,
$GPRMC,015143.000,A,
$GPRMC,015144.000,A,
$GPRMC,015145.000,A,
$GPRMC,015146.000,A,
$GPRMC,015147.000,A,
$GPRMC,015148.000,A,
$GPRMC,015149.000,A,
$GPRMC,015150.000,A,
$GPRMC,015151.000,A,
$GPRMC,015152.000,A,
$GPRMC,015153.000,A,
$GPRMC,015154.000,A,
$GPRMC,015155.000,A,
$GPRMC,015156.000,A,
$GPRMC,015157.000,A,
$GPRMC,015158.000,A,
$GPRMC,015159.000,A,
$GPRMC,015200.000,A,
$GPRMC,015201.000,A,
$GPRMC,015202.000,A,
$GPRMC,015203.000,A,
$GPRMC,015204.000,A,
$GPRMC,015205.000,A,
$GPRMC,015206.000,A,
$GPRMC,015207.000,A,
$GPRMC,015208.000,A,
$GPRMC,015209.000,A,
$GPRMC,015210.000,A,
$GPRMC,015211.000,A,
$GPRMC,015212.000,A,
$GPRMC,015213.000,A,
$GPRMC,015214.000,A,
$GPRMC,015215.000,A,
$GPRMC,015216.000,A,
$GPRMC,015217.000,A,
$GPRMC,015218.000,A,
$GPRMC,015219.000,A,
$GPRMC,015220.000,A,
$GPRMC,015221.000,A,
$GPRMC,015222.000,A,
$GPRMC,015223.000,A,
$GPRMC,015224.000,A,
$GPRMC,015225.000,A,
$GPRMC,015226.000,A,
$GPRMC,015227.000,A,
$GPRMC,015228.000,A,
$GPRMC,015229.000,A,
$GPRMC,015230.000,A,
$GPRMC,015231.000,A,
$GPRMC,015232.000,A,
$GPRMC,015233.000,A,
$GPRMC,015234.000,A,
$GPRMC,015235.000,A,
$GPRMC,015236.000,A,
$GPRMC,015237.000,A,
$GPRMC,015238.000,A,
$GPRMC,015239.000,A,
$GPRMC,015240.000,A,
$GPRMC,015241.000,A,
$GPRMC,015242.000,A,
$GPRMC,015243.000,A,
$GPRMC,015244.000,A,
$GPRMC,015245.000,A,
$GPRMC,015246.000,A,
$GPRMC,015247.000,A,
$GPRMC,015248.000,A,
$GPRMC,015249.000,A,
$GPRMC,015250.000,A,
$GPRMC,015251.000,A,
$GPRMC,015252.000,A,
$GPRMC,015253.000,A,
$GPRMC,015254.000,A,
$GPRMC,015255.000,A,
$GPRMC,015256.000,A,
$GPRMC,015257.000,A,
$GPRMC,015258.000,A,
$GPRMC,015259.000,A,
$GPRMC,015300.000,A,
$GPRMC,015301.000,A,
$GPRMC,015302.000,A,
$GPRMC,015303.000,A,
$GPRMC,015304.000,A,
$GPRMC,015305.000,A,
$GPRMC,015306.000,A,
$GPRMC,015307.000,A,
$GPRMC,015308.000,A,
$GPRMC,015309.000,A,
$GPRMC,015310.000,A,
$GPRMC,015311.000,A,
$GPRMC,015312.000,A,
$GPRMC,015313.000,A,
$GPRMC,015314.000,A,
$GPRMC,015315.000,A,
$GPRMC,015316.000,A,
$GPRMC,015317.000,A,
$GPRMC,015318.000,A,
$GPRMC,015319.000,A,
$GPRMC,015320.000,A,
$GPRMC,015321.000,A,
$GPRMC,015322.000,A,
$GPRMC,015323.000,A,
$GPRMC,015324.000,A,
$GPRMC,015325.000,A,
$GPRMC,015326.000,A,
$GPRMC,015327.000,A,
$GPRMC,015328.000,A,
$GPRMC,015329.000,A,
$GPRMC,015330.000,A,
$GPRMC,015331.000,A,
$GPRMC,015332.000,A,
$GPRMC,015333.000,A,
$GPRMC,015334.000,A,
$GPRMC,015335.000,A,
$GPRMC,015336.000,A,
$GPRMC,015337.000,A,
$GPRMC,015338.000,A,
$GPRMC,015337.000,A,
$GPRMC,015338.000,A,
$GPRMC,015339.000,A,
$GPRMC,015340.000,A,
$GPRMC,015341.000,A,
$GPRMC,015342.000,A,
$GPRMC,015343.000,A,
$GPRMC,015344.000,A,
$GPRMC,015345.000,A,
$GPRMC,015346.000,A,
$GPRMC,015347.000,A,
$GPRMC,015348.000,A,
$GPRMC,015349.000,A,
$GPRMC,015350.000,A,
$GPRMC,015351.000,A,
$GPRMC,015352.000,A,
$GPRMC,015353.000,A,
$GPRMC,015354.000,A,
$GPRMC,015355.000,A,
$GPRMC,015356.000,A,
$GPRMC,015357.000,A,
$GPRMC,015358.000,A,
$GPRMC,015359.000,A,
$GPRMC,015400.000,A,
$GPRMC,015401.000,A,
$GPRMC,015402.000,A,
$GPRMC,015403.000,A,
$GPRMC,015404.000,A,
$GPRMC,015405.000,A,
$GPRMC,015406.000,A,
$GPRMC,015407.000,A,
$GPRMC,015408.000,A,
$GPRMC,015409.000,A,
$GPRMC,015410.000,A,
$GPRMC,015411.000,A,
$GPRMC,015412.000,A,
$GPRMC,015413.000,A,
$GPRMC,015414.000,A,
$GPRMC,015415.000,A,
$GPRMC,015416.000,A,
$GPRMC,015417.000,A,
$GPRMC,015418.000,A,
$GPRMC,015419.000,A,
$GPRMC,015420.000,A,
$GPRMC,015421.000,A,
$GPRMC,015422.000,A,
$GPRMC,015423.000,A,
$GPRMC,015424.000,A,
$GPRMC,015425.000,A,
$GPRMC,015426.000,A,
$GPRMC,015427.000,A,
$GPRMC,015428.000,A,
$GPRMC,015429.000,A,
$GPRMC,015430.000,A,
$GPRMC,015431.000,A,
$GPRMC,015432.000,A,
$GPRMC,015433.000,A,
$GPRMC,015434.000,A,
$GPRMC,015435.000,A,
$GPRMC,015436.000,A,
$GPRMC,015437.000,A,
$GPRMC,015438.000,A,
$GPRMC,015439.000,A,
$GPRMC,015440.000,A,
$GPRMC,015441.000,A,
$GPRMC,015442.000,A,
$GPRMC,015443.000,A,
$GPRMC,015444.000,A,
$GPRMC,015445.000,A,
$GPRMC,015446.000,A,
$GPRMC,015447.000,A,
$GPRMC,015448.000,A,
$GPRMC,015449.000,A,
$GPRMC,015450.000,A,
$GPRMC,015451.000,A,
$GPRMC,015452.000,A,
$GPRMC,015453.000,A,
$GPRMC,015454.000,A,
$GPRMC,015455.000,A,
$GPRMC,015456.000,A,
$GPRMC,015457.000,A,
$GPRMC,015458.000,A,
$GPRMC,015459.000,A,
$GPRMC,015500.000,A,
$GPRMC,015501.000,A,
$GPRMC,015502.000,A,
$GPRMC,015503.000,A,
$GPRMC,015504.000,A,
$GPRMC,015505.000,A,
$GPRMC,015506.000,A,
$GPRMC,015507.000,A,
$GPRMC,015508.000,A,
$GPRMC,015509.000,A,
$GPRMC,015510.000,A,
$GPRMC,015511.000,A,
$GPRMC,015512.000,A,
$GPRMC,015513.000,A,
$GPRMC,015514.000,A,
$GPRMC,015515.000,A,
$GPRMC,015516.000,A,
$GPRMC,015517.000,A,
$GPRMC,015518.000,A,
$GPRMC,015519.000,A,
$GPRMC,015520.000,A,
$GPRMC,015521.000,A,
$GPRMC,015522.000,A,
$GPRMC,015523.000,A,
$GPRMC,015524.000,A,
$GPRMC,015525.000,A,
$GPRMC,015526.000,A,
$GPRMC,015527.000,A,
$GPRMC,015528.000,A,
$GPRMC,015529.000,A,
$GPRMC,015530.000,A,
$GPRMC,015531.000,A,
$GPRMC,015532.000,A,
$GPRMC,015533.000,A,
$GPRMC,015534.000,A,
$GPRMC,015535.000,A,
$GPRMC,015536.000,A,
$GPRMC,015537.000,A,
$GPRMC,015538.000,A,
$GPRMC,015539.000,A,
$GPRMC,015540.000,A,
$GPRMC,015541.000,A,
$GPRMC,015542.000,A,
$GPRMC,015543.000,A,
$GPRMC,015544.000,A,
$GPRMC,015545.000,A,
$GPRMC,015546.000,A,
$GPRMC,015547.000,A,
$GPRMC,015548.000,A,
$GPRMC,015549.000,A,
$GPRMC,015550.000,A,
$GPRMC,015551.000,A,
$GPRMC,015552.000,A,
$GPRMC,015553.000,A,
$GPRMC,015554.000,A,
$GPRMC,015555.000,A,
$GPRMC,015556.000,A,
$GPRMC,015557.000,A,
$GPRMC,015558.000,A,
$GPRMC,015559.000,A,
$GPRMC,015600.000,A,
$GPRMC,015601.000,A,
$GPRMC,015602.000,A,
$GPRMC,015603.000,A,
$GPRMC,015604.000,A,
$GPRMC,015605.000,A,
$GPRMC,015606.000,A,
$GPRMC,015607.000,A,
$GPRMC,015608.000,A,
$GPRMC,015609.000,A,
$GPRMC,015610.000,A,
$GPRMC,015611.000,A,
$GPRMC,015612.000,A,
$GPRMC,015613.000,A,
$GPRMC,015614.000,A,
$GPRMC,015615.000,A,
$GPRMC,015616.000,A,
$GPRMC,015617.000,A,
$GPRMC,015618.000,A,
$GPRMC,015619.000,A,
$GPRMC,015620.000,A,
$GPRMC,015621.000,A,
$GPRMC,015622.000,A,
$GPRMC,015623.000,A,
$GPRMC,015624.000,A,
$GPRMC,015625.000,A,
$GPRMC,015626.000,A,
$GPRMC,015627.000,A,
$GPRMC,015628.000,A,
$GPRMC,015629.000,A,
$GPRMC,015630.000,A,
$GPRMC,015631.000,A,
$GPRMC,015632.000,A,
$GPRMC,015633.000,A,
$GPRMC,015634.000,A,
$GPRMC,015635.000,A,
$GPRMC,015636.000,A,
$GPRMC,015637.000,A,
$GPRMC,015638.000,A,
$GPRMC,015639.000,A,
$GPRMC,015640.000,A,
$GPRMC,015641.000,A,
$GPRMC,015642.000,A,
$GPRMC,015643.000,A,
$GPRMC,015644.000,A,
$GPRMC,015645.000,A,
$GPRMC,015646.000,A,
$GPRMC,015647.000,A,
$GPRMC,015648.000,A,
$GPRMC,015649.000,A,
$GPRMC,015650.000,A,
$GPRMC,015651.000,A,
$GPRMC,015652.000,A,
$GPRMC,015653.000,A,
$GPRMC,015654.000,A,
$GPRMC,015655.000,A,
$GPRMC,015656.000,A,
$GPRMC,015657.000,A,
$GPRMC,015658.000,A,
$GPRMC,015659.000,A,
$GPRMC,015700.000,A,
$GPRMC,015701.000,A,
$GPRMC,015702.000,A,
$GPRMC,015703.000,A,
$GPRMC,015704.000,A,
$GPRMC,015705.000,A,
$GPRMC,015706.000,A,
$GPRMC,015707.000,A,
$GPRMC,015708.000,A,
$GPRMC,015709.000,A,
$GPRMC,015710.000,A,
$GPRMC,015711.000,A,
$GPRMC,015712.000,A,
$GPRMC,015713.000,A,
$GPRMC,015714.000,A,
$GPRMC,015715.000,A,
$GPRMC,015716.000,A,
$GPRMC,015717.000,A,
$GPRMC,015718.000,A,
$GPRMC,015719.000,A,
$GPRMC,015720.000,A,
$GPRMC,015721.000,A,
$GPRMC,015722.000,A,
$GPRMC,015723.000,A,
$GPRMC,015724.000,A,
$GPRMC,015725.000,A,
$GPRMC,015726.000,A,
$GPRMC,015727.000,A,
$GPRMC,015728.000,A,
$GPRMC,015729.000,A,
$GPRMC,015730.000,A,
$GPRMC,015731.000,A,
$GPRMC,015732.000,A,
$GPRMC,015733.000,A,
$GPRMC,015734.000,A,
$GPRMC,015735.000,A,
$GPRMC,015736.000,A,
$GPRMC,015737.000,A,
$GPRMC,015738.000,A,
$GPRMC,015739.000,A,
$GPRMC,015740.000,A,
$GPRMC,015741.000,A,
$GPRMC,015742.000,A,
$GPRMC,015743.000,A,
$GPRMC,015744.000,A,
$GPRMC,015745.000,A,
$GPRMC,015746.000,A,
$GPRMC,015747.000,A,
$GPRMC,015748.000,A,
$GPRMC,015749.000,A,
$GPRMC,015750.000,A,
$GPRMC,015751.000,A,
$GPRMC,015752.000,A,
$GPRMC,015753.000,A,
$GPRMC,015754.000,A,
$GPRMC,015755.000,A,
$GPRMC,015756.000,A,
$GPRMC,015757.000,A,
$GPRMC,015758.000,A,
$GPRMC,015759.000,A,
$GPRMC,015800.000,A,
$GPRMC,015801.000,A,
$GPRMC,015802.000,A,
$GPRMC,015803.000,A,
$GPRMC,015804.000,A,
$GPRMC,015805.000,A,
$GPRMC,015806.000,A,
$GPRMC,015807.000,A,
$GPRMC,015808.000,A,
$GPRMC,015809.000,A,
$GPRMC,015810.000,A,
$GPRMC,015811.000,A,
$GPRMC,015812.000,A,
$GPRMC,015813.000,A,
$GPRMC,015814.000,A,
$GPRMC,015815.000,A,
$GPRMC,015816.000,A,
$GPRMC,015817.000,A,
$GPRMC,015818.000,A,
$GPRMC,015819.000,A,
$GPRMC,015820.000,A,
$GPRMC,015821.000,A,
$GPRMC,015822.000,A,
$GPRMC,015823.000,A,
$GPRMC,015824.000,A,
$GPRMC,015825.000,A,
$GPRMC,015826.000,A,
$GPRMC,015827.000,A,
$GPRMC,015828.000,A,
$GPRMC,015829.000,A,
$GPRMC,015830.000,A,
$GPRMC,015831.000,A,
$GPRMC,015832.000,A,
$GPRMC,015833.000,A,
$GPRMC,015834.000,A,
$GPRMC,015835.000,A,
$GPRMC,015836.000,A,
$GPRMC,015837.000,A,
$GPRMC,015838.000,A,
$GPRMC,015839.000,A,
$GPRMC,015840.000,A,
$GPRMC,015841.000,A,
$GPRMC,015842.000,A,
$GPRMC,015843.000,A,
$GPRMC,015844.000,A,
$GPRMC,015845.000,A,
$GPRMC,015846.000,A,
$GPRMC,015847.000,A,
$GPRMC,015848.000,A,
$GPRMC,015849.000,A,
$GPRMC,015850.000,A,
$GPRMC,015851.000,A,
$GPRMC,015852.000,A,
$GPRMC,015853.000,A,
$GPRMC,015854.000,A,
$GPRMC,015855.000,A,
$GPRMC,015856.000,A,
$GPRMC,015857.000,A,
$GPRMC,015858.000,A,
$GPRMC,015859.000,A,
$GPRMC,015900.000,A,
$GPRMC,015901.000,A,
$GPRMC,015902.000,A,
$GPRMC,015903.000,A,
$GPRMC,015904.000,A,
$GPRMC,015905.000,A,
$GPRMC,015906.000,A,
$GPRMC,015907.000,A,
$GPRMC,015908.000,A,
$GPRMC,015909.000,A,
$GPRMC,015910.000,A,
$GPRMC,015911.000,A,
$GPRMC,015912.000,A,
$GPRMC,015913.000,A,
$GPRMC,015914.000,A,
$GPRMC,015915.000,A,
$GPRMC,015916.000,A,
$GPRMC,015917.000,A,
$GPRMC,015918.000,A,
$GPRMC,015919.000,A,
$GPRMC,015920.000,A,
$GPRMC,015921.000,A,
$GPRMC,015922.000,A,
$GPRMC,015923.000,A,
$GPRMC,015924.000,A,
$GPRMC,015925.000,A,
$GPRMC,015926.000,A,
$GPRMC,015927.000,A,
$GPRMC,015928.000,A,
$GPRMC,015929.000,A,
$GPRMC,015930.000,A,
$GPRMC,015931.000,A,
$GPRMC,015932.000,A,
$GPRMC,015933.000,A,
$GPRMC,015934.000,A,
$GPRMC,015935.000,A,
$GPRMC,015936.000,A,
$GPRMC,015937.000,A,
$GPRMC,015938.000,A,
$GPRMC,015939.000,A,
$GPRMC,015940.000,A,
$GPRMC,015941.000,A,
$GPRMC,015942.000,A,
$GPRMC,015943.000,A,
$GPRMC,015944.000,A,
$GPRMC,015945.000,A,
$GPRMC,015946.000,A,
$GPRMC,015947.000,A,
$GPRMC,015948.000,A,
$GPRMC,015949.000,A,
$GPRMC,015950.000,A,
$GPRMC,015951.000,A,
$GPRMC,015952.000,A,
$GPRMC,015953.000,A,
$GPRMC,015954.000,A,
$GPRMC,015955.000,A,
$GPRMC,015956.000,A,
$GPRMC,015957.000,A,
$GPRMC,015958.000,A,
$GPRMC,015959.000,A,
$GPRMC,020000.000,A,
$GPRMC,020001.000,A,
$GPRMC,020002.000,A,
$GPRMC,020003.000,A,
$GPRMC,020004.000,A,
$GPRMC,020005.000,A,
$GPRMC,020006.000,A,
$GPRMC,020007.000,A,
$GPRMC,020008.000,A,
$GPRMC,020009.000,A,
$GPRMC,020010.000,A,
$GPRMC,020011.000,A,
$GPRMC,020012.000,A,
$GPRMC,020013.000,A,
$GPRMC,020014.000,A,
$GPRMC,020015.000,A,
$GPRMC,020016.000,A,
$GPRMC,020017.000,A,
$GPRMC,020018.000,A,
$GPRMC,020019.000,A,
$GPRMC,020020.000,A,
$GPRMC,020021.000,A,
$GPRMC,020022.000,A,
$GPRMC,020023.000,A,
$GPRMC,020024.000,A,
$GPRMC,020025.000,A,
$GPRMC,020026.000,A,
$GPRMC,020027.000,A,
$GPRMC,020028.000,A,
$GPRMC,020029.000,A,
$GPRMC,020030.000,A,
$GPRMC,020031.000,A,
$GPRMC,020032.000,A,
$GPRMC,020033.000,A,
$GPRMC,020034.000,A,
$GPRMC,020035.000,A,
$GPRMC,020036.000,A,
$GPRMC,020037.000,A,
$GPRMC,020038.000,A,
$GPRMC,020039.000,A,
$GPRMC,020040.000,A,
$GPRMC,020041.000,A,
$GPRMC,020042.000,A,
$GPRMC,020043.000,A,
$GPRMC,020044.000,A,
$GPRMC,020045.000,A,
$GPRMC,020046.000,A,
$GPRMC,020047.000,A,
$GPRMC,020048.000,A,
$GPRMC,020049.000,A,
$GPRMC,020050.000,A,
$GPRMC,020051.000,A,
$GPRMC,020052.000,A,
$GPRMC,020053.000,A,
$GPRMC,020054.000,A,
$GPRMC,020055.000,A,
$GPRMC,020056.000,A,
$GPRMC,020057.000,A,
$GPRMC,020058.000,A,
$GPRMC,020059.000,A,
$GPRMC,020100.000,A,
$GPRMC,020101.000,A,
$GPRMC,020102.000,A,
$GPRMC,020103.000,A,
$GPRMC,020104.000,A,
$GPRMC,020105.000,A,
$GPRMC,020106.000,A,
$GPRMC,020107.000,A,
$GPRMC,020108.000,A,
$GPRMC,020109.000,A,
$GPRMC,020110.000,A,
$GPRMC,020111.000,A,
$GPRMC,020112.000,A,
$GPRMC,020113.000,A,
$GPRMC,020114.000,A,
$GPRMC,020115.000,A,
$GPRMC,020116.000,A,
$GPRMC,020117.000,A,
$GPRMC,020118.000,A,
$GPRMC,020119.000,A,
$GPRMC,020120.000,A,
$GPRMC,020121.000,A,
$GPRMC,020122.000,A,
$GPRMC,020123.000,A,
$GPRMC,020124.000,A,
$GPRMC,020125.000,A,
$GPRMC,020126.000,A,
$GPRMC,020127.000,A,
$GPRMC,020128.000,A,
$GPRMC,020129.000,A,
$GPRMC,020130.000,A,
$GPRMC,020131.000,A,
$GPRMC,020132.000,A,
$GPRMC,020133.000,A,
$GPRMC,020134.000,A,
$GPRMC,020135.000,A,
$GPRMC,020136.000,A,
$GPRMC,020137.000,A,
$GPRMC,020138.000,A,
$GPRMC,020139.000,A,
$GPRMC,020140.000,A,
$GPRMC,020141.000,A,
$GPRMC,020142.000,A,
$GPRMC,020143.000,A,
$GPRMC,020144.000,A,
$GPRMC,020145.000,A,
$GPRMC,020146.000,A,
$GPRMC,020147.000,A,
$GPRMC,020148.000,A,
$GPRMC,020149.000,A,
$GPRMC,020150.000,A,
$GPRMC,020151.000,A,
$GPRMC,020152.000,A,
$GPRMC,020153.000,A,
$GPRMC,020154.000,A,
$GPRMC,020155.000,A,
$GPRMC,020156.000,A,
$GPRMC,020157.000,A,
$GPRMC,020158.000,A,
$GPRMC,020159.000,A,
$GPRMC,020200.000,A,
$GPRMC,020201.000,A,
$GPRMC,020202.000,A,
$GPRMC,020203.000,A,
$GPRMC,020204.000,A,
$GPRMC,020205.000,A,
$GPRMC,020206.000,A,
$GPRMC,020207.000,A,
$GPRMC,020208.000,A,
$GPRMC,020209.000,A,
$GPRMC,020210.000,A,
$GPRMC,020211.000,A,
$GPRMC,020212.000,A,
$GPRMC,020213.000,A,
$GPRMC,020214.000,A,
$GPRMC,020215.000,A,
$GPRMC,020216.000,A,
$GPRMC,020217.000,A,
$GPRMC,020218.000,A,
$GPRMC,020219.000,A,
$GPRMC,020220.000,A,
$GPRMC,020221.000,A,
$GPRMC,020222.000,A,
$GPRMC,020223.000,A,
$GPRMC,020224.000,A,
$GPRMC,020225.000,A,
$GPRMC,020226.000,A,
$GPRMC,020227.000,A,
$GPRMC,020228.000,A,
$GPRMC,020229.000,A,
$GPRMC,020230.000,A,
$GPRMC,020231.000,A,
$GPRMC,020232.000,A,
$GPRMC,020233.000,A,
$GPRMC,020234.000,A,
$GPRMC,020235.000,A,
$GPRMC,020236.000,A,
$GPRMC,020237.000,A,
$GPRMC,020238.000,A,
$GPRMC,020239.000,A,
$GPRMC,020240.000,A,
$GPRMC,020241.000,A,
$GPRMC,020242.000,A,
$GPRMC,020243.000,A,
$GPRMC,020244.000,A,
$GPRMC,020245.000,A,
$GPRMC,020246.000,A,
$GPRMC,020247.000,A,
$GPRMC,020248.000,A,
$GPRMC,020249.000,A,
$GPRMC,020250.000,A,
$GPRMC,020251.000,A,
$GPRMC,020252.000,A,
$GPRMC,020253.000,A,
$GPRMC,020254.000,A,
$GPRMC,020255.000,A,
$GPRMC,020256.000,A,
$GPRMC,020257.000,A,
$GPRMC,020258.000,A,
$GPRMC,020259.000,A,
$GPRMC,020300.000,A,
$GPRMC,020301.000,A,
$GPRMC,020302.000,A,
$GPRMC,020303.000,A,
$GPRMC,020304.000,A,
$GPRMC,020305.000,A,
$GPRMC,020306.000,A,
$GPRMC,020307.000,A,
$GPRMC,020308.000,A,
$GPRMC,020309.000,A,
$GPRMC,020310.000,A,
$GPRMC,020311.000,A,
$GPRMC,020312.000,A,
$GPRMC,020313.000,A,
$GPRMC,020314.000,A,
$GPRMC,020315.000,A,
$GPRMC,020316.000,A,
$GPRMC,020317.000,A,
$GPRMC,020318.000,A,
$GPRMC,020319.000,A,
$GPRMC,020320.000,A,
$GPRMC,020321.000,A,
$GPRMC,020322.000,A,
$GPRMC,020323.000,A,
$GPRMC,020324.000,A,
$GPRMC,020325.000,A,
$GPRMC,020326.000,A,
$GPRMC,020327.000,A,
$GPRMC,020328.000,A,
$GPRMC,020329.000,A,
$GPRMC,020330.000,A,
$GPRMC,020331.000,A,
$GPRMC,020332.000,A,
$GPRMC,020333.000,A,
$GPRMC,020334.000,A,
$GPRMC,020335.000,A,
$GPRMC,020336.000,A,
$GPRMC,020337.000,A,
$GPRMC,020338.000,A,
$GPRMC,020339.000,A,
$GPRMC,020340.000,A,
$GPRMC,020341.000,A,
$GPRMC,020342.000,A,
$GPRMC,020343.000,A,
$GPRMC,020344.000,A,
$GPRMC,020345.000,A,
$GPRMC,020346.000,A,
$GPRMC,020347.000,A,
$GPRMC,020348.000,A,
$GPRMC,020349.000,A,
$GPRMC,020350.000,A,
$GPRMC,020351.000,A,
$GPRMC,020352.000,A,
$GPRMC,020353.000,A,
$GPRMC,020354.000,A,
$GPRMC,020355.000,A,
$GPRMC,020356.000,A,
$GPRMC,020357.000,A,
$GPRMC,020358.000,A,
$GPRMC,020359.000,A,
$GPRMC,020400.000,A,
$GPRMC,020401.000,A,
$GPRMC,020402.000,A,
$GPRMC,020403.000,A,
$GPRMC,020404.000,A,
$GPRMC,020405.000,A,
$GPRMC,020406.000,A,
$GPRMC,020407.000,A,
$GPRMC,020408.000,A,
$GPRMC,020409.000,A,
$GPRMC,020410.000,A,
$GPRMC,020411.000,A,
$GPRMC,020412.000,A,
$GPRMC,020413.000,A,
$GPRMC,020414.000,A,
$GPRMC,020415.000,A,
$GPRMC,020416.000,A,
$GPRMC,020417.000,A,
$GPRMC,020418.000,A,
$GPRMC,020419.000,A,
$GPRMC,020420.000,A,
$GPRMC,020421.000,A,
$GPRMC,020422.000,A,
$GPRMC,020423.000,A,
$GPRMC,020424.000,A,
$GPRMC,020425.000,A,
$GPRMC,020426.000,A,
$GPRMC,020427.000,A,
$GPRMC,020428.000,A,
$GPRMC,020429.000,A,
$GPRMC,020430.000,A,
$GPRMC,020431.000,A,
$GPRMC,020432.000,A,
$GPRMC,020433.000,A,
$GPRMC,020434.000,A,
$GPRMC,020435.000,A,
$GPRMC,020436.000,A,
$GPRMC,020437.000,A,
$GPRMC,020438.000,A,
$GPRMC,020439.000,A,
$GPRMC,020440.000,A,
$GPRMC,020441.000,A,
$GPRMC,020442.000,A,
$GPRMC,020443.000,A,
$GPRMC,020444.000,A,
$GPRMC,020445.000,A,
$GPRMC,020446.000,A,
$GPRMC,020447.000,A,
$GPRMC,020448.000,A,
$GPRMC,020449.000,A,
$GPRMC,020450.000,A,
$GPRMC,020451.000,A,
$GPRMC,020452.000,A,
$GPRMC,020453.000,A,
$GPRMC,020454.000,A,
$GPRMC,020455.000,A,
$GPRMC,020456.000,A,
$GPRMC,020457.000,A,
$GPRMC,020458.000,A,
$GPRMC,020459.000,A,
$GPRMC,020500.000,A,
$GPRMC,020501.000,A,
$GPRMC,020502.000,A,
$GPRMC,020503.000,A,
$GPRMC,020504.000,A,
$GPRMC,020505.000,A,
$GPRMC,020506.000,A,
$GPRMC,020507.000,A,
$GPRMC,020508.000,A,
$GPRMC,020509.000,A,
$GPRMC,020510.000,A,
$GPRMC,020511.000,A,
$GPRMC,020512.000,A,
$GPRMC,020513.000,A,
$GPRMC,020514.000,A,
$GPRMC,020515.000,A,
$GPRMC,020516.000,A,
$GPRMC,020517.000,A,
$GPRMC,020518.000,A,
$GPRMC,020519.000,A,
$GPRMC,020520.000,A,
$GPRMC,020521.000,A,
$GPRMC,020522.000,A,
$GPRMC,020523.000,A,
$GPRMC,020524.000,A,
$GPRMC,020525.000,A,
$GPRMC,020526.000,A,
$GPRMC,020527.000,A,
$GPRMC,020528.000,A,
$GPRMC,020529.000,A,
$GPRMC,020530.000,A,
$GPRMC,020531.000,A,
$GPRMC,020532.000,A,
$GPRMC,020533.000,A,
$GPRMC,020534.000,A,
$GPRMC,020535.000,A,
$GPRMC,020536.000,A,
$GPRMC,020537.000,A,
$GPRMC,020538.000,A,
$GPRMC,020539.000,A,
$GPRMC,020540.000,A,
$GPRMC,020541.000,A,
$GPRMC,020542.000,A,
$GPRMC,020543.000,A,
$GPRMC,020544.000,A,
$GPRMC,020545.000,A,
$GPRMC,020546.000,A,
$GPRMC,020547.000,A,
$GPRMC,020548.000,A,
$GPRMC,020549.000,A,
$GPRMC,020550.000,A,
$GPRMC,020551.000,A,
$GPRMC,020552.000,A,
$GPRMC,020553.000,A,
$GPRMC,020554.000,A,
$GPRMC,020555.000,A,
$GPRMC,020556.000,A,
$GPRMC,020557.000,A,
$GPRMC,020558.000,A,
$GPRMC,020559.000,A,
$GPRMC,020600.000,A,
$GPRMC,020601.000,A,
$GPRMC,020602.000,A,
$GPRMC,020603.000,A,
$GPRMC,020604.000,A,
$GPRMC,020605.000,A,
$GPRMC,020606.000,A,
$GPRMC,020607.000,A,
$GPRMC,020608.000,A,
$GPRMC,020609.000,A,
$GPRMC,020610.000,A,
$GPRMC,020611.000,A,
$GPRMC,020612.000,A,
$GPRMC,020613.000,A,
$GPRMC,020614.000,A,
$GPRMC,020615.000,A,
$GPRMC,020616.000,A,
$GPRMC,020617.000,A,
$GPRMC,020618.000,A,
$GPRMC,020619.000,A,
$GPRMC,020620.000,A,
$GPRMC,020621.000,A,
$GPRMC,020622.000,A,
$GPRMC,020623.000,A,
$GPRMC,020624.000,A,
$GPRMC,020625.000,A,
$GPRMC,020626.000,A,
$GPRMC,020627.000,A,
$GPRMC,020628.000,A,
$GPRMC,020629.000,A,
$GPRMC,020630.000,A,
$GPRMC,020631.000,A,
$GPRMC,020632.000,A,
$GPRMC,020633.000,A,
$GPRMC,020634.000,A,
$GPRMC,020635.000,A,
$GPRMC,020636.000,A,
$GPRMC,020637.000,A,
$GPRMC,020638.000,A,
$GPRMC,020639.000,A,
$GPRMC,020640.000,A,
$GPRMC,020641.000,A,
$GPRMC,020642.000,A,
$GPRMC,020643.000,A,
$GPRMC,020644.000,A,
$GPRMC,020645.000,A,
$GPRMC,020646.000,A,
$GPRMC,020647.000,A,
$GPRMC,020648.000,A,
$GPRMC,020649.000,A,
$GPRMC,020650.000,A,
$GPRMC,020651.000,A,
$GPRMC,020652.000,A,
$GPRMC,020653.000,A,
$GPRMC,020654.000,A,
$GPRMC,020655.000,A,
$GPRMC,020656.000,A,
$GPRMC,020657.000,A,
$GPRMC,020658.000,A,
$GPRMC,020659.000,A,
$GPRMC,020700.000,A,
$GPRMC,020701.000,A,
$GPRMC,020702.000,A,
$GPRMC,020703.000,A,
$GPRMC,020704.000,A,
$GPRMC,020705.000,A,
$GPRMC,020706.000,A,
$GPRMC,020707.000,A,
$GPRMC,020708.000,A,
$GPRMC,020709.000,A,
$GPRMC,020710.000,A,
$GPRMC,020711.000,A,
$GPRMC,020712.000,A,
$GPRMC,020713.000,A,
$GPRMC,020714.000,A,
$GPRMC,020715.000,A,
$GPRMC,020716.000,A,
$GPRMC,020717.000,A,
$GPRMC,020718.000,A,
$GPRMC,020719.000,A,
$GPRMC,020720.000,A,
$GPRMC,020721.000,A,
$GPRMC,020722.000,A,
$GPRMC,020723.000,A,
$GPRMC,020724.000,A,
$GPRMC,020725.000,A,
$GPRMC,020726.000,A,
$GPRMC,020727.000,A,
$GPRMC,020728.000,A,
$GPRMC,020729.000,A,
$GPRMC,020730.000,A,
$GPRMC,020731.000,A,
$GPRMC,020732.000,A,
$GPRMC,020733.000,A,
$GPRMC,020734.000,A,
$GPRMC,020735.000,A,
$GPRMC,020736.000,A,
$GPRMC,020737.000,A,
$GPRMC,020738.000,A,
$GPRMC,020739.000,A,
$GPRMC,020740.000,A,
$GPRMC,020741.000,A,
$GPRMC,020742.000,A,
$GPRMC,020743.000,A,
$GPRMC,020744.000,A,
$GPRMC,020745.000,A,
$GPRMC,020746.000,A,
$GPRMC,020747.000,A,
$GPRMC,020748.000,A,
$GPRMC,020749.000,A,
$GPRMC,020750.000,A,
$GPRMC,020751.000,A,
$GPRMC,020752.000,A,
$GPRMC,020753.000,A,
$GPRMC,020754.000,A,
$GPRMC,020755.000,A,
$GPRMC,020756.000,A,
$GPRMC,020757.000,A,
$GPRMC,020758.000,A,
$GPRMC,020759.000,A,
$GPRMC,020800.000,A,
$GPRMC,020801.000,A,
$GPRMC,020802.000,A,
$GPRMC,020803.000,A,
$GPRMC,020804.000,A,
$GPRMC,020805.000,A,
$GPRMC,020806.000,A,
$GPRMC,020807.000,A,
$GPRMC,020808.000,A,
$GPRMC,020809.000,A,
